sample_id,location,latitude,longitude,ph,lead,cadmium,arsenic,mercury,chromium,nickel,zinc,copper,date_collected
WS001,Mumbai Central,19.0760,72.8777,7.2,0.008,0.002,0.005,0.003,0.025,0.035,1.2,0.8,2024-01-15
WS002,Delhi Yamuna,28.7041,77.1025,6.8,0.012,0.0025,0.008,0.004,0.035,0.045,1.8,1.2,2024-01-16
WS003,Kolkata Industrial,22.5726,88.3639,6.5,0.015,0.0035,0.012,0.005,0.048,0.065,2.5,1.8,2024-01-17
WS004,Chennai Marina,13.0827,80.2707,7.8,0.005,0.001,0.003,0.002,0.015,0.025,0.8,0.5,2024-01-18
WS005,Bangalore Lake,12.9716,77.5946,7.5,0.009,0.002,0.006,0.003,0.028,0.038,1.4,0.9,2024-01-19
WS006,Hyderabad Hussain Sagar,17.3850,78.4867,7.1,0.007,0.0018,0.004,0.0025,0.022,0.032,1.1,0.7,2024-01-20
WS007,Pune Mula River,18.5204,73.8567,6.9,0.011,0.0028,0.009,0.0045,0.038,0.052,2.1,1.4,2024-01-21
WS008,Ahmedabad Sabarmati,23.0225,72.5714,7.6,0.006,0.0015,0.0035,0.002,0.018,0.028,0.9,0.6,2024-01-22